Raw,1635830347434,3550699000000,18,,-1319862014735559861,0.5916938781738281,471.67972661554813,15.816351606832912,48.13643335342827,2,23,0.0,16399,191965360601063,776,21.3,99.29523468017578,4.256500244140625,16,0.0,0.0,1.57542003E9,,,,0,,1,-0.1,17.8,0.0,0.0,,,,
Raw,1635830347434,3550699000000,18,,-1319862014735559861,0.5916938781738281,471.67972661554813,15.816351606832912,48.13643335342827,2,27,0.0,16399,191965357291422,122,17.1,129.37115478515625,4.937000274658203,16,0.0,0.0,1.57542003E9,,,,0,,1,-0.1,13.600000000000001,0.0,0.0,,,,
Raw,1635830347434,3550699000000,18,,-1319862014735559861,0.5916938781738281,471.67972661554813,15.816351606832912,48.13643335342827,2,12,0.0,16399,191951360341313,122,17.9,345.9207458496094,4.356500148773193,16,0.0,0.0,1.56109798E9,,,,0,,5,0.09,13.599999999999998,-2597.60693359375,30.36346435546875,,,,
OrientationDeg,1635830346974,3532725702145,283,-5,-47
OrientationDeg,1635830346990,3532741702145,283,-5,-47
OrientationDeg,1635830347006,3532757702145,283,-5,-47
OrientationDeg,1635830347022,3532773702145,283,-5,-47
OrientationDeg,1635830347038,3532789702145,283,-5,-47
OrientationDeg,1635830347054,3532805702145,283,-5,-47
OrientationDeg,1635830347070,3532821702145,283,-5,-47
OrientationDeg,1635830347086,3532837702145,283,-5,-47
OrientationDeg,1635830347102,3532853702145,283,-5,-47
OrientationDeg,1635830347119,3532869702145,283,-5,-47
OrientationDeg,1635830347135,3532885702145,283,-5,-47
OrientationDeg,1635830347151,3532901702145,283,-5,-47
OrientationDeg,1635830347167,3532917702145,283,-5,-47
OrientationDeg,1635830347182,3532933702145,283,-5,-47
OrientationDeg,1635830347198,3532949702145,283,-5,-47
OrientationDeg,1635830347214,3532965702145,283,-5,-47
OrientationDeg,1635830347230,3532981702145,283,-5,-47
OrientationDeg,1635830347246,3532997702145,283,-5,-47
OrientationDeg,1635830347262,3533013702145,283,-5,-47
OrientationDeg,1635830347278,3533029702145,283,-5,-47
OrientationDeg,1635830347294,3533045702145,283,-5,-47
OrientationDeg,1635830347310,3533061702145,283,-5,-47
OrientationDeg,1635830347327,3533077702145,283,-5,-47
OrientationDeg,1635830347343,3533093702145,283,-5,-47
OrientationDeg,1635830347359,3533109702145,283,-5,-47
OrientationDeg,1635830347374,3533125702145,283,-5,-47
OrientationDeg,1635830347390,3533141702145,283,-5,-47
OrientationDeg,1635830347406,3533157702145,283,-5,-47
OrientationDeg,1635830347422,3533173702145,283,-5,-47
OrientationDeg,1635830347438,3533189702145,283,-5,-47
OrientationDeg,1635830347454,3533205702145,283,-5,-47
OrientationDeg,1635830347470,3533221702145,283,-5,-47
OrientationDeg,1635830347486,3533237702145,283,-5,-47
OrientationDeg,1635830347502,3533253702145,283,-5,-47
OrientationDeg,1635830347519,3533269702145,283,-5,-47
OrientationDeg,1635830347535,3533285702145,283,-5,-47
Raw,1635830348434,3551699000000,18,,-1319862014735559883,0.4187660217285156,417.0883330516517,15.816351606832912,54.380978209446795,2,23,0.0,16399,191966360600728,789,21.6,99.0288314819336,5.006500244140625,16,0.0,0.0,1.57542003E9,,,,0,,1,-0.02,18.1,0.0,0.0,,,,
Raw,1635830348434,3551699000000,18,,-1319862014735559883,0.4187660217285156,417.0883330516517,15.816351606832912,54.380978209446795,2,32,0.0,16399,191966364788979,106,18.0,34.59539031982422,3.6125001907348633,16,0.0,0.0,1.57542003E9,,,,0,,1,-0.02,14.5,0.0,0.0,,,,
Raw,1635830348434,3551699000000,18,,-1319862014735559883,0.4187660217285156,417.0883330516517,15.816351606832912,54.380978209446795,2,9,0.0,16399,191952313356753,1035,19.3,68.75013732910156,5.116000175476074,16,0.0,0.0,1.56109798E9,,,,0,,5,-0.24,15.0,-2597.60693359375,30.36346435546875,,,,
OrientationDeg,1635830347550,3533301702145,283,-5,-47
OrientationDeg,1635830347566,3533317702145,283,-5,-47
OrientationDeg,1635830347582,3533333702145,283,-5,-47
OrientationDeg,1635830347598,3533349702145,283,-5,-47
OrientationDeg,1635830347614,3533365702145,283,-5,-47
OrientationDeg,1635830347630,3533381702145,283,-5,-47
OrientationDeg,1635830347646,3533397702145,283,-5,-47
OrientationDeg,1635830347662,3533413702145,283,-5,-47
OrientationDeg,1635830347678,3533429702145,283,-5,-47
OrientationDeg,1635830347694,3533445702145,282,-5,-47
OrientationDeg,1635830347710,3533461702145,282,-5,-47
OrientationDeg,1635830347727,3533477702145,282,-5,-47
OrientationDeg,1635830347743,3533493702145,282,-5,-47
OrientationDeg,1635830347759,3533509702145,282,-5,-47
OrientationDeg,1635830347775,3533525702145,282,-5,-47
OrientationDeg,1635830347790,3533541702145,282,-5,-47
OrientationDeg,1635830347806,3533557702145,282,-5,-47
OrientationDeg,1635830347822,3533573702145,282,-5,-47
OrientationDeg,1635830347838,3533589702145,282,-5,-47
OrientationDeg,1635830347854,3533605702145,282,-5,-47
OrientationDeg,1635830347870,3533621702145,282,-5,-47
OrientationDeg,1635830347886,3533637702145,282,-5,-47
OrientationDeg,1635830347902,3533653702145,282,-5,-47
OrientationDeg,1635830347919,3533669702145,282,-5,-47
OrientationDeg,1635830347935,3533685702145,282,-5,-47
OrientationDeg,1635830347951,3533701702145,282,-5,-47
OrientationDeg,1635830347966,3533717702145,282,-5,-47
OrientationDeg,1635830347982,3533733702145,282,-5,-47
OrientationDeg,1635830347998,3533749702145,282,-5,-47
OrientationDeg,1635830348014,3533765702145,282,-5,-47
OrientationDeg,1635830348030,3533781702145,282,-5,-47
OrientationDeg,1635830348046,3533797702145,282,-5,-47
OrientationDeg,1635830348062,3533813702145,282,-5,-47
OrientationDeg,1635830348078,3533829702145,282,-5,-47
OrientationDeg,1635830348094,3533845702145,282,-5,-47
OrientationDeg,1635830348110,3533861702145,282,-5,-47
OrientationDeg,1635830348126,3533877702145,282,-5,-47
OrientationDeg,1635830348142,3533893702145,282,-5,-47
OrientationDeg,1635830348159,3533909702145,282,-5,-47
OrientationDeg,1635830348175,3533925702145,282,-5,-47
OrientationDeg,1635830348191,3533941702145,282,-5,-47
OrientationDeg,1635830348207,3533957702145,282,-5,-47
OrientationDeg,1635830348222,3533973702145,282,-5,-47
OrientationDeg,1635830348238,3533989702145,282,-5,-47
OrientationDeg,1635830348254,3534005702145,282,-5,-47
OrientationDeg,1635830348270,3534021702145,282,-5,-47
Raw,1635830349434,3552699000000,18,,-1319862014735559876,0.6607303619384766,397.50515134073794,11.516606918967685,60.072928379520135,2,23,0.0,16399,191967360600389,806,21.4,98.94319915771484,5.756499767303467,16,0.0,0.0,1.57542003E9,,,,0,,1,0.07,17.9,0.0,0.0,,,,
Raw,1635830349434,3552699000000,18,,-1319862014735559876,0.6607303619384766,397.50515134073794,11.516606918967685,60.072928379520135,2,11,0.0,16399,191953357149735,122,17.9,-200.43162536621094,3.752000331878662,16,0.0,0.0,1.56109798E9,,,,0,,5,0.27,13.599999999999998,-2597.60693359375,30.36346435546875,,,,
Raw,1635830349434,3552699000000,18,,-1319862014735559876,0.6607303619384766,397.50515134073794,11.516606918967685,60.072928379520135,2,9,0.0,16399,191953313356524,1051,19.0,68.7885513305664,5.866000175476074,16,0.0,0.0,1.56109798E9,,,,0,,5,0.27,14.7,-2597.60693359375,30.36346435546875,,,,
OrientationDeg,1635830348286,3534037702145,282,-5,-47
OrientationDeg,1635830348302,3534053702145,282,-5,-47
OrientationDeg,1635830348318,3534069702145,282,-5,-47
OrientationDeg,1635830348334,3534085702145,282,-5,-47
OrientationDeg,1635830348350,3534101702145,282,-5,-47
OrientationDeg,1635830348366,3534117702145,282,-5,-47
OrientationDeg,1635830348382,3534133702145,282,-5,-47
OrientationDeg,1635830348399,3534149702145,282,-5,-47
OrientationDeg,1635830348415,3534165702145,282,-5,-47
OrientationDeg,1635830348431,3534181702145,282,-5,-47
OrientationDeg,1635830348447,3534197702145,282,-5,-47
OrientationDeg,1635830348462,3534213702145,282,-5,-47
OrientationDeg,1635830348478,3534229702145,282,-5,-47
OrientationDeg,1635830348494,3534245702145,282,-5,-47
OrientationDeg,1635830348510,3534261702145,282,-5,-47
OrientationDeg,1635830348526,3534277702145,282,-5,-47
OrientationDeg,1635830348542,3534293702145,282,-5,-47
OrientationDeg,1635830348558,3534309702145,282,-5,-47
OrientationDeg,1635830348574,3534325702145,282,-5,-47
OrientationDeg,1635830348590,3534341702145,282,-5,-47
OrientationDeg,1635830348606,3534357702145,282,-5,-47
OrientationDeg,1635830348622,3534373702145,282,-5,-47
OrientationDeg,1635830348638,3534389702145,282,-5,-47
OrientationDeg,1635830348655,3534405702145,282,-5,-47
OrientationDeg,1635830348671,3534421702145,282,-5,-47
OrientationDeg,1635830348687,3534437702145,282,-5,-47
OrientationDeg,1635830348703,3534453702145,282,-5,-47
OrientationDeg,1635830348718,3534469702145,282,-5,-47
OrientationDeg,1635830348734,3534485702145,282,-5,-47
OrientationDeg,1635830348750,3534501702145,282,-5,-47
OrientationDeg,1635830348766,3534517702145,282,-5,-47
OrientationDeg,1635830348782,3534533702145,282,-5,-47
OrientationDeg,1635830348798,3534549702145,282,-5,-47
OrientationDeg,1635830348814,3534565702145,282,-5,-47
OrientationDeg,1635830348830,3534581702145,282,-5,-47
OrientationDeg,1635830348846,3534597702145,282,-5,-47
OrientationDeg,1635830348862,3534613702145,282,-5,-47
OrientationDeg,1635830348878,3534629702145,282,-5,-47
OrientationDeg,1635830348894,3534645702145,282,-5,-47
OrientationDeg,1635830348911,3534661702145,282,-5,-47
OrientationDeg,1635830348927,3534677702145,282,-5,-47
OrientationDeg,1635830348943,3534693702145,282,-5,-47
OrientationDeg,1635830348959,3534709702145,282,-5,-47
OrientationDeg,1635830348975,3534725702145,282,-5,-47
OrientationDeg,1635830348990,3534741702145,282,-5,-47
OrientationDeg,1635830349006,3534757702145,282,-5,-47
OrientationDeg,1635830349022,3534773702145,282,-5,-47
OrientationDeg,1635830349038,3534789702145,282,-5,-47
OrientationDeg,1635830349054,3534805702145,282,-5,-47
OrientationDeg,1635830349070,3534821702145,283,-5,-47
OrientationDeg,1635830349086,3534837702145,283,-5,-47
OrientationDeg,1635830349102,3534853702145,283,-5,-47
OrientationDeg,1635830349118,3534869702145,283,-5,-47
OrientationDeg,1635830349134,3534885702145,283,-5,-47
OrientationDeg,1635830349150,3534901702145,283,-5,-47
OrientationDeg,1635830349166,3534917702145,283,-5,-47
OrientationDeg,1635830349183,3534933702145,283,-5,-47
OrientationDeg,1635830349199,3534949702145,283,-5,-47
OrientationDeg,1635830349215,3534965702145,283,-5,-47
OrientationDeg,1635830349231,3534981702145,283,-5,-47
OrientationDeg,1635830349247,3534997702145,283,-5,-47
OrientationDeg,1635830349262,3535013702145,283,-5,-47
OrientationDeg,1635830349278,3535029702145,283,-5,-47
OrientationDeg,1635830349294,3535045702145,283,-5,-47
OrientationDeg,1635830349310,3535061702145,283,-5,-47
OrientationDeg,1635830349326,3535077702145,283,-5,-47
OrientationDeg,1635830349342,3535093702145,283,-5,-47
OrientationDeg,1635830349358,3535109702145,283,-5,-47
OrientationDeg,1635830349374,3535125702145,283,-5,-47
Status,0,33,0,1,8,1575420032,15.70,298.00,12.00,1,1,1,15.7
Status,0,33,1,1,10,1575420032,21.10,4.00,43.00,1,1,1,21.1
Status,0,33,2,1,18,1575420032,15.90,135.00,45.00,1,1,1,15.9
Status,0,33,3,1,23,1575420032,21.30,52.00,36.00,1,1,1,21.3
Status,0,33,4,1,27,1575420032,17.10,270.00,28.00,1,1,1,17.1
Status,0,33,5,1,31,1575420032,13.30,189.00,23.00,1,1,1,13.3
Status,0,33,6,1,32,1575420032,28.70,296.00,61.00,1,1,1,28.7
Status,0,33,7,1,24,1575420032,0.00,45.00,16.00,0,1,1,0.0
Status,0,33,8,1,25,1575420032,0.00,125.00,4.00,0,1,1,0.0
Status,0,33,9,3,5,1602562560,17.50,313.00,34.00,1,1,0,17.5
Status,0,33,10,3,4,1605374976,16.20,14.00,27.00,1,1,0,16.2
Status,0,33,11,3,14,1598062464,0.00,82.00,21.00,0,1,0,0.0
Status,0,33,12,3,6,1599750016,0.00,261.00,2.00,0,1,0,0.0
Status,0,33,13,3,18,1600312448,0.00,171.00,25.00,0,1,0,0.0
Status,0,33,14,3,15,1602000000,0.00,136.00,19.00,0,1,0,0.0
Status,0,33,15,3,20,1603124992,0.00,323.00,35.00,0,1,0,0.0
Status,0,33,16,3,19,1603687552,0.00,210.00,66.00,0,1,0,0.0
Status,0,33,17,5,16,1561097984,23.00,28.00,54.00,1,1,0,23.0
Status,0,33,18,5,12,1561097984,17.90,215.00,54.00,1,1,0,17.9
Status,0,33,19,5,11,1561097984,20.30,296.00,39.00,1,1,0,20.3
Status,0,33,20,5,6,1561097984,19.30,26.00,63.00,0,1,0,19.3
Status,0,33,21,5,1,1561097984,0.00,97.00,13.00,0,1,0,0.0
Status,0,33,22,5,2,1561097984,0.00,160.00,68.00,0,1,0,0.0
Status,0,33,23,5,3,1561097984,0.00,115.00,47.00,0,1,0,0.0
Status,0,33,24,5,5,1561097984,0.00,229.00,59.00,0,1,0,0.0
Status,0,33,25,5,7,1561097984,0.00,149.00,7.00,0,1,0,0.0
Status,0,33,26,5,8,1561097984,0.00,104.00,50.00,0,1,0,0.0
Status,0,33,27,5,9,1561097984,0.00,19.00,77.00,0,1,0,0.0
Status,0,33,28,5,10,1561097984,0.00,161.00,10.00,0,1,0,0.0
Status,0,33,29,5,13,1561097984,0.00,91.00,61.00,0,1,0,0.0
Status,0,33,30,5,14,1561097984,0.00,281.00,14.00,0,1,0,0.0
Status,0,33,31,5,21,1561097984,0.00,7.00,42.00,0,1,0,0.0
Status,0,33,32,5,22,1561097984,0.00,57.00,14.00,0,1,0,0.0
OrientationDeg,1635830349391,3535141702145,283,-5,-47
OrientationDeg,1635830349406,3535157702145,283,-5,-47
Fix,GPS,18.6581331,78.1161818,248.166016,0.000000,30.175798,0.000000,1635830348000,3.4380372,0.0,3532741673599
OrientationDeg,1635830349422,3535173702145,283,-5,-47
Status,1635830348000,33,0,1,8,1575420032,15.70,298.00,12.00,1,1,1,15.7
Status,1635830348000,33,1,1,10,1575420032,21.10,4.00,43.00,1,1,1,21.1
Status,1635830348000,33,2,1,18,1575420032,15.90,135.00,45.00,1,1,1,15.9
Status,1635830348000,33,3,1,23,1575420032,21.60,52.00,36.00,1,1,1,21.6
Status,1635830348000,33,4,1,27,1575420032,17.10,270.00,28.00,1,1,1,17.1
Status,1635830348000,33,5,1,31,1575420032,13.30,189.00,23.00,1,1,1,13.3
Status,1635830348000,33,6,1,32,1575420032,18.00,296.00,61.00,1,1,1,18.0
Status,1635830348000,33,7,1,24,1575420032,0.00,45.00,16.00,0,1,1,0.0
Status,1635830348000,33,8,1,25,1575420032,0.00,125.00,4.00,0,1,1,0.0
Status,1635830348000,33,9,3,5,1602562560,17.50,313.00,34.00,1,1,0,17.5
Status,1635830348000,33,10,3,4,1605374976,16.20,14.00,27.00,1,1,0,16.2
Status,1635830348000,33,11,3,14,1598062464,0.00,82.00,21.00,0,1,0,0.0
Status,1635830348000,33,12,3,6,1599750016,0.00,261.00,2.00,0,1,0,0.0
Status,1635830348000,33,13,3,18,1600312448,0.00,171.00,25.00,0,1,0,0.0
Status,1635830348000,33,14,3,15,1602000000,0.00,136.00,19.00,0,1,0,0.0
Status,1635830348000,33,15,3,20,1603124992,0.00,323.00,35.00,0,1,0,0.0
Status,1635830348000,33,16,3,19,1603687552,0.00,210.00,66.00,0,1,0,0.0
Status,1635830348000,33,17,5,16,1561097984,23.00,28.00,54.00,1,1,0,23.0
Status,1635830348000,33,18,5,12,1561097984,17.90,215.00,54.00,1,1,0,17.9
Status,1635830348000,33,19,5,11,1561097984,20.30,296.00,39.00,1,1,0,20.3
Status,1635830348000,33,20,5,9,1561097984,19.30,19.00,77.00,0,1,0,19.3
Status,1635830348000,33,21,5,6,1561097984,19.30,26.00,63.00,0,1,0,19.3
Status,1635830348000,33,22,5,1,1561097984,0.00,97.00,13.00,0,1,0,0.0
Status,1635830348000,33,23,5,2,1561097984,0.00,160.00,68.00,0,1,0,0.0
Status,1635830348000,33,24,5,3,1561097984,0.00,115.00,47.00,0,1,0,0.0
Status,1635830348000,33,25,5,5,1561097984,0.00,229.00,59.00,0,1,0,0.0
Status,1635830348000,33,26,5,7,1561097984,0.00,149.00,7.00,0,1,0,0.0
Status,1635830348000,33,27,5,8,1561097984,0.00,104.00,50.00,0,1,0,0.0
Status,1635830348000,33,28,5,10,1561097984,0.00,161.00,10.00,0,1,0,0.0
Status,1635830348000,33,29,5,13,1561097984,0.00,91.00,61.00,0,1,0,0.0
Status,1635830348000,33,30,5,14,1561097984,0.00,281.00,14.00,0,1,0,0.0
Status,1635830348000,33,31,5,21,1561097984,0.00,7.00,42.00,0,1,0,0.0
Status,1635830348000,33,32,5,22,1561097984,0.00,57.00,14.00,0,1,0,0.0
OrientationDeg,1635830349438,3535189702145,283,-5,-47
Fix,GPS,18.6581330,78.1161816,248.265076,0.000000,29.269989,0.000000,1635830349000,3.4690201,0.0,3533745218078
OrientationDeg,1635830349454,3535205702145,283,-5,-47
Status,1635830349000,33,0,1,8,1575420032,15.70,298.00,12.00,0,1,1,15.7
Status,1635830349000,33,1,1,10,1575420032,21.10,4.00,43.00,1,1,1,21.1
Status,1635830349000,33,2,1,18,1575420032,15.90,135.00,45.00,1,1,1,15.9
Status,1635830349000,33,3,1,23,1575420032,21.40,52.00,36.00,1,1,1,21.4
Status,1635830349000,33,4,1,27,1575420032,17.10,270.00,28.00,1,1,1,17.1
Status,1635830349000,33,5,1,31,1575420032,13.30,189.00,23.00,1,1,1,13.3
Status,1635830349000,33,6,1,32,1575420032,18.00,296.00,61.00,1,1,1,18.0
Status,1635830349000,33,7,1,24,1575420032,0.00,45.00,16.00,0,1,1,0.0
Status,1635830349000,33,8,1,25,1575420032,0.00,125.00,4.00,0,1,1,0.0
Status,1635830349000,33,9,3,5,1602562560,17.50,313.00,34.00,1,1,0,17.5
Status,1635830349000,33,10,3,4,1605374976,16.20,14.00,27.00,1,1,0,16.2
Status,1635830349000,33,11,3,14,1598062464,0.00,82.00,21.00,0,1,0,0.0
Status,1635830349000,33,12,3,6,1599750016,0.00,261.00,2.00,0,1,0,0.0
Status,1635830349000,33,13,3,18,1600312448,0.00,171.00,25.00,0,1,0,0.0
Status,1635830349000,33,14,3,15,1602000000,0.00,136.00,19.00,0,1,0,0.0
Status,1635830349000,33,15,3,20,1603124992,0.00,323.00,35.00,0,1,0,0.0
Status,1635830349000,33,16,3,19,1603687552,0.00,210.00,66.00,0,1,0,0.0
Status,1635830349000,33,17,5,16,1561097984,23.00,28.00,54.00,1,1,0,23.0
Status,1635830349000,33,18,5,12,1561097984,17.90,215.00,54.00,1,1,0,17.9
Status,1635830349000,33,19,5,11,1561097984,17.90,296.00,39.00,1,1,0,17.9
Status,1635830349000,33,20,5,9,1561097984,19.00,19.00,77.00,1,1,0,19.0
Status,1635830349000,33,21,5,6,1561097984,19.30,26.00,63.00,0,1,0,19.3
Status,1635830349000,33,22,5,1,1561097984,0.00,97.00,13.00,0,1,0,0.0
Status,1635830349000,33,23,5,2,1561097984,0.00,160.00,68.00,0,1,0,0.0
Status,1635830349000,33,24,5,3,1561097984,0.00,115.00,47.00,0,1,0,0.0
Status,1635830349000,33,25,5,5,1561097984,0.00,229.00,59.00,0,1,0,0.0
Status,1635830349000,33,26,5,7,1561097984,0.00,149.00,7.00,0,1,0,0.0
Status,1635830349000,33,27,5,8,1561097984,0.00,104.00,50.00,0,1,0,0.0
Status,1635830349000,33,28,5,10,1561097984,0.00,161.00,10.00,0,1,0,0.0
Status,1635830349000,33,29,5,13,1561097984,0.00,91.00,61.00,0,1,0,0.0
Status,1635830349000,33,30,5,14,1561097984,0.00,281.00,14.00,0,1,0,0.0
Status,1635830349000,33,31,5,21,1561097984,0.00,7.00,42.00,0,1,0,0.0
Status,1635830349000,33,32,5,22,1561097984,0.00,57.00,14.00,0,1,0,0.0
OrientationDeg,1635830349470,3535221702145,283,-5,-47
Fix,GPS,18.6581331,78.1161814,248.331421,0.000000,29.152401,0.000000,1635830350000,3.4470277,0.0,3534742625838
OrientationDeg,1635830349486,3535237702145,283,-5,-47
OrientationDeg,1635830349503,3535253702145,283,-5,-47
OrientationDeg,1635830349518,3535269702145,283,-5,-47
OrientationDeg,1635830349535,3535285702145,283,-5,-47
OrientationDeg,1635830349551,3535301702145,283,-5,-47
OrientationDeg,1635830349566,3535317702145,283,-5,-47
OrientationDeg,1635830349582,3535333702145,283,-5,-47
OrientationDeg,1635830349598,3535349702145,283,-5,-47
OrientationDeg,1635830349615,3535365702145,283,-5,-47
OrientationDeg,1635830349630,3535381702145,283,-5,-47
OrientationDeg,1635830349646,3535397702145,283,-5,-47
OrientationDeg,1635830349662,3535413702145,283,-5,-47
OrientationDeg,1635830349679,3535429702145,283,-5,-47
OrientationDeg,1635830349694,3535445702145,283,-5,-47
OrientationDeg,1635830349710,3535461702145,283,-5,-47
OrientationDeg,1635830349727,3535477702145,283,-5,-47
OrientationDeg,1635830349743,3535493702145,283,-5,-47
OrientationDeg,1635830349759,3535509702145,283,-5,-47
OrientationDeg,1635830349774,3535525702145,283,-5,-47
OrientationDeg,1635830349790,3535541702145,283,-5,-47
OrientationDeg,1635830349806,3535557702145,283,-5,-47
OrientationDeg,1635830349823,3535573702145,283,-5,-47
OrientationDeg,1635830349839,3535589702145,283,-5,-47
OrientationDeg,1635830349854,3535605702145,283,-5,-47
OrientationDeg,1635830349870,3535621702145,283,-5,-47
OrientationDeg,1635830349886,3535637702145,283,-5,-47
OrientationDeg,1635830349902,3535653702145,283,-5,-47
OrientationDeg,1635830349918,3535669702145,283,-5,-47
OrientationDeg,1635830349934,3535685702145,283,-5,-47
OrientationDeg,1635830349950,3535701702145,283,-5,-47
OrientationDeg,1635830349966,3535717702145,283,-5,-47
Status,1635830350000,33,0,1,8,1575420032,15.70,298.00,12.00,0,1,1,15.7
Status,1635830350000,33,1,1,10,1575420032,21.10,4.00,43.00,0,1,1,21.1
Status,1635830350000,33,2,1,18,1575420032,15.90,135.00,45.00,0,1,1,15.9
Status,1635830350000,33,3,1,23,1575420032,21.30,52.00,36.00,1,1,1,21.3
Status,1635830350000,33,4,1,27,1575420032,17.10,270.00,28.00,1,1,1,17.1
Status,1635830350000,33,5,1,31,1575420032,13.30,189.00,23.00,1,1,1,13.3
Status,1635830350000,33,6,1,32,1575420032,18.00,296.00,61.00,1,1,1,18.0
Status,1635830350000,33,7,1,24,1575420032,0.00,45.00,16.00,0,1,1,0.0
Status,1635830350000,33,8,1,25,1575420032,0.00,125.00,4.00,0,1,1,0.0
Status,1635830350000,33,9,3,5,1602562560,17.50,313.00,34.00,1,1,0,17.5
Status,1635830350000,33,10,3,4,1605374976,16.20,14.00,27.00,0,1,0,16.2
Status,1635830350000,33,11,3,14,1598062464,0.00,82.00,21.00,0,1,0,0.0
Status,1635830350000,33,12,3,6,1599750016,0.00,261.00,2.00,0,1,0,0.0
Status,1635830350000,33,13,3,18,1600312448,0.00,171.00,25.00,0,1,0,0.0
Status,1635830350000,33,14,3,15,1602000000,0.00,136.00,19.00,0,1,0,0.0
Status,1635830350000,33,15,3,20,1603124992,0.00,323.00,35.00,0,1,0,0.0
Status,1635830350000,33,16,3,19,1603687552,0.00,210.00,66.00,0,1,0,0.0
Status,1635830350000,33,17,5,16,1561097984,23.00,28.00,54.00,0,1,0,23.0
Status,1635830350000,33,18,5,12,1561097984,17.90,215.00,54.00,1,1,0,17.9
Status,1635830350000,33,19,5,11,1561097984,17.90,296.00,39.00,1,1,0,17.9
Status,1635830350000,33,20,5,9,1561097984,18.60,19.00,77.00,1,1,0,18.6
Status,1635830350000,33,21,5,6,1561097984,19.30,26.00,63.00,0,1,0,19.3
Status,1635830350000,33,22,5,1,1561097984,0.00,97.00,13.00,0,1,0,0.0
Status,1635830350000,33,23,5,2,1561097984,0.00,160.00,68.00,0,1,0,0.0
Status,1635830350000,33,24,5,3,1561097984,0.00,115.00,47.00,0,1,0,0.0
Status,1635830350000,33,25,5,5,1561097984,0.00,229.00,59.00,0,1,0,0.0
Status,1635830350000,33,26,5,7,1561097984,0.00,149.00,7.00,0,1,0,0.0
Status,1635830350000,33,27,5,8,1561097984,0.00,104.00,50.00,0,1,0,0.0
Status,1635830350000,33,28,5,10,1561097984,0.00,161.00,10.00,0,1,0,0.0
Status,1635830350000,33,29,5,13,1561097984,0.00,91.00,61.00,0,1,0,0.0
Status,1635830350000,33,30,5,14,1561097984,0.00,281.00,14.00,0,1,0,0.0
Status,1635830350000,33,31,5,21,1561097984,0.00,7.00,42.00,0,1,0,0.0
Status,1635830350000,33,32,5,22,1561097984,0.00,57.00,14.00,0,1,0,0.0
OrientationDeg,1635830349983,3535733702145,283,-5,-47
Raw,1635830350434,3553699000000,18,,-1319862014735559869,0.7238807678222656,383.7247204501182,10.97009293454505,61.1527006417243,2,23,0.0,16399,191968360600052,824,21.3,99.21912384033203,6.506500244140625,16,0.0,0.0,1.57542003E9,,,,0,,1,-0.48,17.8,0.0,0.0,,,,
Raw,1635830350434,3553699000000,18,,-1319862014735559869,0.7238807678222656,383.7247204501182,10.97009293454505,61.1527006417243,2,9,0.0,16399,191954313356287,1222,18.6,69.1534194946289,6.716000556945801,16,0.0,0.0,1.56109798E9,,,,0,,5,-0.12,14.3,-2597.60693359375,30.36346435546875,,,,
OrientationDeg,1635830349998,3535749702145,283,-5,-47
OrientationDeg,1635830350014,3535765702145,283,-5,-47
OrientationDeg,1635830350030,3535781702145,283,-5,-47
OrientationDeg,1635830350046,3535797702145,283,-5,-47
OrientationDeg,1635830350062,3535813702145,283,-5,-47
OrientationDeg,1635830350078,3535829702145,283,-5,-47
OrientationDeg,1635830350094,3535845702145,283,-5,-47
OrientationDeg,1635830350110,3535861702145,283,-5,-47
OrientationDeg,1635830350126,3535877702145,283,-5,-47
Fix,GPS,18.6581331,78.1161813,248.386963,0.000000,29.524773,0.000000,1635830351000,3.5679967,0.0,3535738493129
OrientationDeg,1635830350142,3535893702145,283,-5,-47
OrientationDeg,1635830350158,3535909702145,283,-5,-47
OrientationDeg,1635830350174,3535925702145,283,-5,-47
OrientationDeg,1635830350191,3535941702145,283,-5,-47
OrientationDeg,1635830350206,3535957702145,283,-5,-47
OrientationDeg,1635830350222,3535973702145,283,-5,-47
OrientationDeg,1635830350239,3535989702145,283,-5,-47
OrientationDeg,1635830350255,3536005702145,283,-5,-47
OrientationDeg,1635830350271,3536021702145,283,-5,-47
OrientationDeg,1635830350286,3536037702145,283,-5,-47
OrientationDeg,1635830350302,3536053702145,283,-5,-47
OrientationDeg,1635830350319,3536069702145,283,-5,-47
OrientationDeg,1635830350334,3536085702145,283,-5,-47
OrientationDeg,1635830350350,3536101702145,283,-5,-47
OrientationDeg,1635830350366,3536117702145,283,-5,-47
OrientationDeg,1635830350382,3536133702145,283,-5,-47
OrientationDeg,1635830350399,3536149702145,283,-5,-47
OrientationDeg,1635830350415,3536165702145,283,-5,-47
OrientationDeg,1635830350431,3536181702145,283,-5,-47
OrientationDeg,1635830350446,3536197702145,283,-5,-47
OrientationDeg,1635830350462,3536213702145,283,-6,-47
OrientationDeg,1635830350478,3536229702145,283,-6,-47
OrientationDeg,1635830350494,3536245702145,283,-6,-47
OrientationDeg,1635830350510,3536261702145,283,-6,-47
OrientationDeg,1635830350526,3536277702145,283,-6,-47
OrientationDeg,1635830350542,3536293702145,283,-6,-47
OrientationDeg,1635830350558,3536309702145,283,-6,-47
OrientationDeg,1635830350575,3536325702145,283,-6,-47
OrientationDeg,1635830350590,3536341702145,283,-6,-47
OrientationDeg,1635830350606,3536357702145,283,-6,-47
OrientationDeg,1635830350622,3536373702145,283,-6,-47
OrientationDeg,1635830350638,3536389702145,283,-6,-47
OrientationDeg,1635830350655,3536405702145,283,-6,-47
OrientationDeg,1635830350670,3536421702145,283,-6,-47
OrientationDeg,1635830350686,3536437702145,283,-6,-47
OrientationDeg,1635830350703,3536453702145,283,-6,-47
OrientationDeg,1635830350718,3536469702145,283,-6,-47
OrientationDeg,1635830350735,3536485702145,283,-6,-47
OrientationDeg,1635830350750,3536501702145,283,-6,-47
OrientationDeg,1635830350766,3536517702145,283,-6,-47
OrientationDeg,1635830350783,3536533702145,283,-6,-47
OrientationDeg,1635830350798,3536549702145,283,-6,-47
OrientationDeg,1635830350814,3536565702145,283,-6,-47
OrientationDeg,1635830350830,3536581702145,283,-6,-47
OrientationDeg,1635830350846,3536597702145,283,-6,-47
OrientationDeg,1635830350862,3536613702145,283,-6,-47
OrientationDeg,1635830350878,3536629702145,283,-6,-47
OrientationDeg,1635830350894,3536645702145,283,-6,-47
OrientationDeg,1635830350910,3536661702145,283,-6,-47
OrientationDeg,1635830350927,3536677702145,283,-6,-47
OrientationDeg,1635830350942,3536693702145,283,-6,-47
OrientationDeg,1635830350958,3536709702145,283,-6,-47
OrientationDeg,1635830350974,3536725702145,283,-6,-47
Status,1635830351000,33,0,1,8,1575420032,15.70,298.00,12.00,0,1,1,15.7
Status,1635830351000,33,1,1,10,1575420032,21.10,4.00,43.00,0,1,1,21.1
Status,1635830351000,33,2,1,18,1575420032,15.90,135.00,45.00,0,1,1,15.9
Status,1635830351000,33,3,1,23,1575420032,21.10,52.00,36.00,1,1,1,21.1
Status,1635830351000,33,4,1,27,1575420032,19.00,270.00,28.00,1,1,1,19.0
Status,1635830351000,33,5,1,31,1575420032,13.30,189.00,23.00,1,1,1,13.3
Status,1635830351000,33,6,1,32,1575420032,18.00,296.00,61.00,1,1,1,18.0
Status,1635830351000,33,7,1,24,1575420032,0.00,45.00,16.00,0,1,1,0.0
Status,1635830351000,33,8,1,25,1575420032,0.00,125.00,4.00,0,1,1,0.0
Status,1635830351000,33,9,3,5,1602562560,17.50,313.00,34.00,1,1,0,17.5
Status,1635830351000,33,10,3,4,1605374976,16.20,14.00,27.00,0,1,0,16.2
Status,1635830351000,33,11,3,14,1598062464,0.00,82.00,21.00,0,1,0,0.0
Status,1635830351000,33,12,3,6,1599750016,0.00,261.00,2.00,0,1,0,0.0
Status,1635830351000,33,13,3,18,1600312448,0.00,171.00,25.00,0,1,0,0.0
Status,1635830351000,33,14,3,15,1602000000,0.00,136.00,19.00,0,1,0,0.0
Status,1635830351000,33,15,3,20,1603124992,0.00,323.00,35.00,0,1,0,0.0
Status,1635830351000,33,16,3,19,1603687552,0.00,210.00,66.00,0,1,0,0.0
Status,1635830351000,33,17,5,16,1561097984,23.00,28.00,54.00,0,1,0,23.0
Status,1635830351000,33,18,5,12,1561097984,17.90,215.00,54.00,1,1,0,17.9
Status,1635830351000,33,19,5,11,1561097984,17.90,296.00,39.00,1,1,0,17.9
Status,1635830351000,33,20,5,9,1561097984,18.20,19.00,77.00,1,1,0,18.2
Status,1635830351000,33,21,5,6,1561097984,19.30,26.00,63.00,0,1,0,19.3
Status,1635830351000,33,22,5,1,1561097984,0.00,97.00,13.00,0,1,0,0.0
Status,1635830351000,33,23,5,2,1561097984,0.00,160.00,68.00,0,1,0,0.0
Status,1635830351000,33,24,5,3,1561097984,0.00,115.00,47.00,0,1,0,0.0
Status,1635830351000,33,25,5,5,1561097984,0.00,229.00,59.00,0,1,0,0.0
Status,1635830351000,33,26,5,7,1561097984,0.00,149.00,7.00,0,1,0,0.0
Status,1635830351000,33,27,5,8,1561097984,0.00,104.00,50.00,0,1,0,0.0
Status,1635830351000,33,28,5,10,1561097984,0.00,161.00,10.00,0,1,0,0.0
Status,1635830351000,33,29,5,13,1561097984,0.00,91.00,61.00,0,1,0,0.0
Status,1635830351000,33,30,5,14,1561097984,0.00,281.00,14.00,0,1,0,0.0
Status,1635830351000,33,31,5,21,1561097984,0.00,7.00,42.00,0,1,0,0.0
Status,1635830351000,33,32,5,22,1561097984,0.00,57.00,14.00,0,1,0,0.0
OrientationDeg,1635830350990,3536741702145,283,-6,-47
OrientationDeg,1635830351006,3536757702145,283,-6,-47
Fix,GPS,18.6581346,78.1161845,248.727600,0.000000,29.444639,0.000000,1635830352000,3.5525906,0.0,3536742699378
Raw,1635830351434,3554699000000,18,,-1319862014735559858,0.6613330841064453,381.863588700071,10.946681517932323,69.56252557268485,2,23,0.0,16399,191969360599720,845,21.1,99.23815155029297,7.256499767303467,16,0.0,0.0,1.57542003E9,,,,0,,1,-0.23,17.6,0.0,0.0,,,,
Raw,1635830351434,3554699000000,18,,-1319862014735559858,0.6613330841064453,381.863588700071,10.946681517932323,69.56252557268485,2,27,0.0,16399,191969357289552,92,19.0,131.03622436523438,3.5320003032684326,16,0.0,0.0,1.57542003E9,,,,0,,1,-0.23,15.5,0.0,0.0,,,,
Raw,1635830351434,3554699000000,18,,-1319862014735559858,0.6613330841064453,381.863588700071,10.946681517932323,69.56252557268485,2,9,0.0,16399,191955313356060,1243,18.2,69.06700134277344,7.466000556945801,16,0.0,0.0,1.56109798E9,,,,0,,5,0.02,13.899999999999999,-2597.60693359375,30.36346435546875,,,,
OrientationDeg,1635830351022,3536773702145,283,-6,-47
OrientationDeg,1635830351039,3536789702145,282,-6,-47
OrientationDeg,1635830351054,3536805702145,282,-6,-47
OrientationDeg,1635830351070,3536821702145,283,-6,-47
OrientationDeg,1635830351086,3536837702145,283,-6,-47
OrientationDeg,1635830351102,3536853702145,283,-6,-47
OrientationDeg,1635830351118,3536869702145,283,-6,-47
OrientationDeg,1635830351135,3536885702145,283,-6,-47
OrientationDeg,1635830351150,3536901702145,283,-6,-47
OrientationDeg,1635830351166,3536917702145,283,-6,-47
OrientationDeg,1635830351182,3536933702145,283,-6,-47
OrientationDeg,1635830351199,3536949702145,283,-6,-47
OrientationDeg,1635830351214,3536965702145,283,-6,-47
OrientationDeg,1635830351231,3536981702145,283,-6,-47
OrientationDeg,1635830351247,3536997702145,283,-6,-47
OrientationDeg,1635830351263,3537013702145,283,-6,-46
OrientationDeg,1635830351278,3537029702145,283,-6,-46
OrientationDeg,1635830351294,3537045702145,283,-6,-46
OrientationDeg,1635830351310,3537061702145,283,-6,-46
OrientationDeg,1635830351326,3537077702145,282,-6,-46
OrientationDeg,1635830351343,3537093702145,282,-6,-46
OrientationDeg,1635830351358,3537109702145,282,-6,-46
OrientationDeg,1635830351374,3537125702145,283,-6,-46
OrientationDeg,1635830351391,3537141702145,283,-6,-46
OrientationDeg,1635830351407,3537157702145,283,-6,-46
OrientationDeg,1635830351423,3537173702145,283,-6,-46
OrientationDeg,1635830351439,3537189702145,283,-6,-46
OrientationDeg,1635830351455,3537205702145,283,-6,-46
OrientationDeg,1635830351470,3537221702145,283,-6,-46
OrientationDeg,1635830351486,3537237702145,283,-6,-46
OrientationDeg,1635830351502,3537253702145,283,-6,-46
OrientationDeg,1635830351519,3537269702145,283,-6,-46
OrientationDeg,1635830351534,3537285702145,282,-6,-46
OrientationDeg,1635830351551,3537301702145,282,-6,-46
OrientationDeg,1635830351566,3537317702145,282,-6,-46
OrientationDeg,1635830351583,3537333702145,282,-6,-46
OrientationDeg,1635830351599,3537349702145,282,-6,-46
OrientationDeg,1635830351614,3537365702145,282,-6,-46
OrientationDeg,1635830351630,3537381702145,282,-6,-46
OrientationDeg,1635830351647,3537397702145,282,-6,-46
OrientationDeg,1635830351662,3537413702145,282,-6,-46
OrientationDeg,1635830351678,3537429702145,282,-6,-46
OrientationDeg,1635830351695,3537445702145,282,-6,-46
OrientationDeg,1635830351710,3537461702145,282,-6,-46
OrientationDeg,1635830351727,3537477702145,282,-6,-46
OrientationDeg,1635830351743,3537493702145,282,-6,-46
OrientationDeg,1635830351759,3537509702145,282,-6,-46
OrientationDeg,1635830351774,3537525702145,282,-6,-46
OrientationDeg,1635830351790,3537541702145,282,-6,-46
OrientationDeg,1635830351806,3537557702145,282,-6,-46
OrientationDeg,1635830351822,3537573702145,282,-6,-46
OrientationDeg,1635830351838,3537589702145,282,-6,-46
OrientationDeg,1635830351854,3537605702145,282,-6,-46
OrientationDeg,1635830351870,3537621702145,282,-6,-46
OrientationDeg,1635830351887,3537637702145,282,-6,-46
OrientationDeg,1635830351902,3537653702145,282,-6,-46
OrientationDeg,1635830351919,3537669702145,282,-6,-46
OrientationDeg,1635830351935,3537685702145,282,-6,-46
OrientationDeg,1635830351951,3537701702145,282,-6,-46
OrientationDeg,1635830351966,3537717702145,282,-6,-46
Status,1635830352000,33,0,1,8,1575420032,15.70,298.00,12.00,0,1,1,15.7
Status,1635830352000,33,1,1,10,1575420032,21.10,4.00,43.00,0,1,1,21.1
Status,1635830352000,33,2,1,18,1575420032,15.90,135.00,45.00,0,1,1,15.9
Status,1635830352000,33,3,1,23,1575420032,21.20,52.00,36.00,1,1,1,21.2
Status,1635830352000,33,4,1,27,1575420032,19.00,270.00,28.00,1,1,1,19.0
Status,1635830352000,33,5,1,31,1575420032,13.30,189.00,23.00,1,1,1,13.3
Status,1635830352000,33,6,1,32,1575420032,18.00,296.00,61.00,1,1,1,18.0
Status,1635830352000,33,7,1,24,1575420032,0.00,45.00,16.00,0,1,1,0.0
Status,1635830352000,33,8,1,25,1575420032,0.00,125.00,4.00,0,1,1,0.0
Status,1635830352000,33,9,3,5,1602562560,17.50,313.00,34.00,0,1,0,17.5
Status,1635830352000,33,10,3,4,1605374976,16.20,14.00,27.00,0,1,0,16.2
Status,1635830352000,33,11,3,14,1598062464,0.00,82.00,21.00,0,1,0,0.0
Status,1635830352000,33,12,3,6,1599750016,0.00,261.00,2.00,0,1,0,0.0
Status,1635830352000,33,13,3,18,1600312448,0.00,171.00,25.00,0,1,0,0.0
Status,1635830352000,33,14,3,15,1602000000,0.00,136.00,19.00,0,1,0,0.0
Status,1635830352000,33,15,3,20,1603124992,0.00,323.00,35.00,0,1,0,0.0
Status,1635830352000,33,16,3,19,1603687552,0.00,210.00,66.00,0,1,0,0.0
Status,1635830352000,33,17,5,16,1561097984,23.00,28.00,54.00,0,1,0,23.0
Status,1635830352000,33,18,5,12,1561097984,17.90,215.00,54.00,1,1,0,17.9
Status,1635830352000,33,19,5,11,1561097984,20.90,296.00,39.00,1,1,0,20.9
Status,1635830352000,33,20,5,9,1561097984,18.50,19.00,77.00,1,1,0,18.5
Status,1635830352000,33,21,5,6,1561097984,19.30,26.00,63.00,0,1,0,19.3
Status,1635830352000,33,22,5,1,1561097984,0.00,97.00,13.00,0,1,0,0.0
Status,1635830352000,33,23,5,2,1561097984,0.00,160.00,68.00,0,1,0,0.0
Status,1635830352000,33,24,5,3,1561097984,0.00,115.00,47.00,0,1,0,0.0
Status,1635830352000,33,25,5,5,1561097984,0.00,229.00,59.00,0,1,0,0.0
Status,1635830352000,33,26,5,7,1561097984,0.00,149.00,7.00,0,1,0,0.0
Status,1635830352000,33,27,5,8,1561097984,0.00,104.00,50.00,0,1,0,0.0
Status,1635830352000,33,28,5,10,1561097984,0.00,161.00,10.00,0,1,0,0.0
Status,1635830352000,33,29,5,13,1561097984,0.00,91.00,61.00,0,1,0,0.0
Status,1635830352000,33,30,5,14,1561097984,0.00,281.00,14.00,0,1,0,0.0
Status,1635830352000,33,31,5,21,1561097984,0.00,7.00,42.00,0,1,0,0.0
Status,1635830352000,33,32,5,22,1561097984,0.00,57.00,14.00,0,1,0,0.0
OrientationDeg,1635830351982,3537733702145,282,-6,-46
Raw,1635830352434,3555699000000,18,,-1319862014735559826,0.6392250061035156,346.2204185780138,12.180882603449643,62.89679789569454,2,23,0.0,16399,191970360599383,869,21.2,99.36184692382812,8.006500244140625,16,0.0,0.0,1.57542003E9,,,,0,,1,-0.1,17.7,0.0,0.0,,,,
Raw,1635830352434,3555699000000,18,,-1319862014735559826,0.6392250061035156,346.2204185780138,12.180882603449643,62.89679789569454,2,11,0.0,16399,191956357151717,80,20.9,-199.4234161376953,2.691999912261963,16,0.0,0.0,1.56109798E9,,,,0,,5,0.14,16.599999999999998,-2597.60693359375,30.36346435546875,,,,
Raw,1635830352434,3555699000000,18,,-1319862014735559826,0.6392250061035156,346.2204185780138,12.180882603449643,62.89679789569454,2,9,0.0,16399,191956313355829,1267,18.5,68.97097778320312,8.2160005569458,16,0.0,0.0,1.56109798E9,,,,0,,5,0.14,14.2,-2597.60693359375,30.36346435546875,,,,
OrientationDeg,1635830351998,3537749702145,282,-6,-46
OrientationDeg,1635830352014,3537765702145,282,-6,-46
OrientationDeg,1635830352031,3537781702145,282,-6,-46
OrientationDeg,1635830352047,3537797702145,282,-6,-46
OrientationDeg,1635830352063,3537813702145,282,-6,-46
OrientationDeg,1635830352079,3537829702145,282,-6,-46
OrientationDeg,1635830352094,3537845702145,282,-6,-46
OrientationDeg,1635830352110,3537861702145,282,-6,-46
OrientationDeg,1635830352126,3537877702145,282,-6,-46
OrientationDeg,1635830352142,3537893702145,282,-6,-46
OrientationDeg,1635830352158,3537909702145,282,-6,-46
OrientationDeg,1635830352174,3537925702145,282,-6,-46
OrientationDeg,1635830352190,3537941702145,282,-6,-46
OrientationDeg,1635830352206,3537957702145,282,-6,-46
OrientationDeg,1635830352222,3537973702145,282,-6,-46
OrientationDeg,1635830352238,3537989702145,282,-6,-46
OrientationDeg,1635830352254,3538005702145,282,-6,-46
OrientationDeg,1635830352270,3538021702145,282,-6,-46
OrientationDeg,1635830352287,3538037702145,282,-6,-46
Fix,GPS,18.6581346,78.1161844,248.791382,0.000000,29.893366,0.000000,1635830353000,3.5564308,0.0,3537741457711
OrientationDeg,1635830352302,3538053702145,282,-6,-46
OrientationDeg,1635830352319,3538069702145,282,-6,-46
OrientationDeg,1635830352334,3538085702145,282,-6,-46
OrientationDeg,1635830352351,3538101702145,282,-6,-46
OrientationDeg,1635830352367,3538117702145,282,-6,-46
OrientationDeg,1635830352382,3538133702145,282,-6,-46
OrientationDeg,1635830352399,3538149702145,282,-6,-46
OrientationDeg,1635830352414,3538165702145,282,-6,-46
OrientationDeg,1635830352430,3538181702145,282,-6,-46
OrientationDeg,1635830352446,3538197702145,282,-6,-46
OrientationDeg,1635830352462,3538213702145,282,-6,-46
OrientationDeg,1635830352479,3538229702145,282,-6,-46
OrientationDeg,1635830352494,3538245702145,283,-6,-46
OrientationDeg,1635830352510,3538261702145,283,-6,-46
OrientationDeg,1635830352526,3538277702145,283,-6,-46
OrientationDeg,1635830352543,3538293702145,283,-6,-46
OrientationDeg,1635830352558,3538309702145,283,-6,-46
OrientationDeg,1635830352574,3538325702145,283,-6,-46
OrientationDeg,1635830352590,3538341702145,283,-6,-46
OrientationDeg,1635830352607,3538357702145,283,-6,-46
OrientationDeg,1635830352622,3538373702145,283,-6,-46
OrientationDeg,1635830352638,3538389702145,283,-6,-46
OrientationDeg,1635830352654,3538405702145,283,-6,-46
OrientationDeg,1635830352670,3538421702145,283,-6,-46
OrientationDeg,1635830352686,3538437702145,283,-6,-46
OrientationDeg,1635830352703,3538453702145,283,-6,-46
OrientationDeg,1635830352718,3538469702145,283,-6,-46
OrientationDeg,1635830352734,3538485702145,283,-6,-46
OrientationDeg,1635830352750,3538501702145,283,-6,-46
OrientationDeg,1635830352766,3538517702145,283,-6,-46
OrientationDeg,1635830352782,3538533702145,283,-6,-46
OrientationDeg,1635830352798,3538549702145,282,-6,-46
OrientationDeg,1635830352814,3538565702145,282,-6,-46
OrientationDeg,1635830352830,3538581702145,282,-6,-46
OrientationDeg,1635830352846,3538597702145,282,-6,-46
OrientationDeg,1635830352862,3538613702145,282,-6,-46
OrientationDeg,1635830352879,3538629702145,282,-6,-46
OrientationDeg,1635830352894,3538645702145,282,-6,-46
OrientationDeg,1635830352911,3538661702145,282,-6,-46
OrientationDeg,1635830352927,3538677702145,282,-6,-46
OrientationDeg,1635830352943,3538693702145,282,-6,-46
OrientationDeg,1635830352958,3538709702145,282,-6,-46
OrientationDeg,1635830352974,3538725702145,282,-6,-46
Status,1635830353000,33,0,1,8,1575420032,12.10,298.00,12.00,0,1,1,12.1
Status,1635830353000,33,1,1,10,1575420032,21.10,4.00,43.00,0,1,1,21.1
Status,1635830353000,33,2,1,18,1575420032,15.90,135.00,45.00,0,1,1,15.9
Status,1635830353000,33,3,1,23,1575420032,21.00,52.00,36.00,1,1,1,21.0
Status,1635830353000,33,4,1,27,1575420032,19.00,270.00,28.00,1,1,1,19.0
Status,1635830353000,33,5,1,31,1575420032,13.30,189.00,23.00,0,1,1,13.3
Status,1635830353000,33,6,1,32,1575420032,16.20,296.00,61.00,1,1,1,16.2
Status,1635830353000,33,7,1,24,1575420032,0.00,45.00,16.00,0,1,1,0.0
Status,1635830353000,33,8,1,25,1575420032,0.00,125.00,4.00,0,1,1,0.0
Status,1635830353000,33,9,3,5,1602562560,17.50,313.00,34.00,0,1,0,17.5
Status,1635830353000,33,10,3,4,1605374976,16.20,14.00,27.00,0,1,0,16.2
Status,1635830353000,33,11,3,14,1598062464,0.00,82.00,21.00,0,1,0,0.0
Status,1635830353000,33,12,3,6,1599750016,0.00,261.00,2.00,0,1,0,0.0
Status,1635830353000,33,13,3,18,1600312448,0.00,171.00,25.00,0,1,0,0.0
Status,1635830353000,33,14,3,15,1602000000,0.00,136.00,19.00,0,1,0,0.0
Status,1635830353000,33,15,3,20,1603124992,0.00,323.00,35.00,0,1,0,0.0
Status,1635830353000,33,16,3,19,1603687552,0.00,210.00,66.00,0,1,0,0.0
Status,1635830353000,33,17,5,16,1561097984,23.00,28.00,54.00,0,1,0,23.0
Status,1635830353000,33,18,5,12,1561097984,17.90,215.00,54.00,1,1,0,17.9
Status,1635830353000,33,19,5,11,1561097984,20.90,296.00,39.00,1,1,0,20.9
Status,1635830353000,33,20,5,9,1561097984,18.80,19.00,77.00,1,1,0,18.8
Status,1635830353000,33,21,5,6,1561097984,19.30,26.00,63.00,0,1,0,19.3
Status,1635830353000,33,22,5,1,1561097984,0.00,97.00,13.00,0,1,0,0.0
Status,1635830353000,33,23,5,2,1561097984,0.00,160.00,68.00,0,1,0,0.0
Status,1635830353000,33,24,5,3,1561097984,0.00,115.00,47.00,0,1,0,0.0
Status,1635830353000,33,25,5,5,1561097984,0.00,229.00,59.00,0,1,0,0.0
Status,1635830353000,33,26,5,7,1561097984,0.00,149.00,7.00,0,1,0,0.0
Status,1635830353000,33,27,5,8,1561097984,0.00,104.00,50.00,0,1,0,0.0
Status,1635830353000,33,28,5,10,1561097984,0.00,161.00,10.00,0,1,0,0.0
Status,1635830353000,33,29,5,13,1561097984,0.00,91.00,61.00,0,1,0,0.0
Status,1635830353000,33,30,5,14,1561097984,0.00,281.00,14.00,0,1,0,0.0
Status,1635830353000,33,31,5,21,1561097984,0.00,7.00,42.00,0,1,0,0.0
Status,1635830353000,33,32,5,22,1561097984,0.00,57.00,14.00,0,1,0,0.0
OrientationDeg,1635830352990,3538741702145,282,-6,-46
Fix,GPS,18.6581342,78.1161854,249.036987,0.000000,30.130959,0.000000,1635830354000,3.6304407,0.0,3538740424326
Raw,1635830353434,3556699000000,18,,-1319862014735559817,0.1924915313720703,338.8877084944397,12.219365348149463,61.061440811601884,2,8,0.0,16399,191971352639712,181,12.1,-134.80404663085938,10.139500617980957,16,0.0,0.0,1.57542003E9,,,,0,,1,-0.18,8.6,0.0,0.0,,,,
Raw,1635830353434,3556699000000,18,,-1319862014735559817,0.1924915313720703,338.8877084944397,12.219365348149463,61.061440811601884,2,23,0.0,16399,191971360599057,895,21.0,99.43795776367188,8.756500244140625,16,0.0,0.0,1.57542003E9,,,,0,,1,-0.18,17.5,0.0,0.0,,,,
Raw,1635830353434,3556699000000,18,,-1319862014735559817,0.1924915313720703,338.8877084944397,12.219365348149463,61.061440811601884,2,32,0.0,16399,191971364788284,139,16.2,33.91984558105469,4.602499961853027,16,0.0,0.0,1.57542003E9,,,,0,,1,-0.18,12.7,0.0,0.0,,,,
Raw,1635830353434,3556699000000,18,,-1319862014735559817,0.1924915313720703,338.8877084944397,12.219365348149463,61.061440811601884,2,9,0.0,16399,191957313355596,1294,18.8,68.75013732910156,8.9660005569458,16,0.0,0.0,1.56109798E9,,,,0,,5,0.14,14.5,-2597.60693359375,30.36346435546875,,,,
OrientationDeg,1635830353006,3538757702145,282,-6,-46
OrientationDeg,1635830353023,3538773702145,282,-6,-46
OrientationDeg,1635830353039,3538789702145,282,-6,-46
OrientationDeg,1635830353054,3538805702145,282,-6,-46
OrientationDeg,1635830353070,3538821702145,282,-6,-46
OrientationDeg,1635830353086,3538837702145,282,-6,-46
OrientationDeg,1635830353102,3538853702145,282,-6,-46
OrientationDeg,1635830353118,3538869702145,282,-6,-46
OrientationDeg,1635830353135,3538885702145,282,-6,-46
OrientationDeg,1635830353150,3538901702145,282,-6,-46
OrientationDeg,1635830353166,3538917702145,282,-6,-46
OrientationDeg,1635830353183,3538933702145,282,-6,-46
OrientationDeg,1635830353198,3538949702145,282,-6,-46
OrientationDeg,1635830353214,3538965702145,282,-6,-46
OrientationDeg,1635830353230,3538981702145,283,-6,-46
OrientationDeg,1635830353246,3538997702145,283,-6,-46
OrientationDeg,1635830353262,3539013702145,283,-6,-46
OrientationDeg,1635830353278,3539029702145,283,-6,-46
OrientationDeg,1635830353294,3539045702145,283,-6,-46
OrientationDeg,1635830353311,3539061702145,283,-6,-46
OrientationDeg,1635830353326,3539077702145,283,-6,-46
OrientationDeg,1635830353342,3539093702145,283,-6,-46
OrientationDeg,1635830353359,3539109702145,283,-6,-46
OrientationDeg,1635830353375,3539125702145,283,-6,-46
OrientationDeg,1635830353391,3539141702145,283,-6,-46
OrientationDeg,1635830353406,3539157702145,283,-6,-46
OrientationDeg,1635830353422,3539173702145,283,-6,-46
OrientationDeg,1635830353438,3539189702145,283,-6,-46
OrientationDeg,1635830353455,3539205702145,283,-6,-46
OrientationDeg,1635830353470,3539221702145,283,-6,-46
OrientationDeg,1635830353486,3539237702145,283,-6,-46
OrientationDeg,1635830353502,3539253702145,283,-6,-46
OrientationDeg,1635830353519,3539269702145,283,-6,-46
OrientationDeg,1635830353534,3539285702145,283,-6,-46
OrientationDeg,1635830353551,3539301702145,283,-6,-46
OrientationDeg,1635830353567,3539317702145,283,-6,-46
OrientationDeg,1635830353582,3539333702145,283,-6,-46
OrientationDeg,1635830353598,3539349702145,283,-6,-46
OrientationDeg,1635830353614,3539365702145,283,-6,-46
OrientationDeg,1635830353630,3539381702145,283,-6,-46
OrientationDeg,1635830353646,3539397702145,283,-6,-46
OrientationDeg,1635830353662,3539413702145,283,-6,-46
OrientationDeg,1635830353679,3539429702145,283,-6,-46
OrientationDeg,1635830353694,3539445702145,283,-6,-46
OrientationDeg,1635830353710,3539461702145,283,-6,-46
OrientationDeg,1635830353726,3539477702145,283,-6,-46
OrientationDeg,1635830353742,3539493702145,283,-6,-46
OrientationDeg,1635830353759,3539509702145,283,-6,-46
OrientationDeg,1635830353774,3539525702145,283,-6,-46
OrientationDeg,1635830353790,3539541702145,283,-6,-46
OrientationDeg,1635830353806,3539557702145,283,-6,-46
OrientationDeg,1635830353822,3539573702145,283,-6,-46
OrientationDeg,1635830353838,3539589702145,283,-6,-46
OrientationDeg,1635830353854,3539605702145,283,-6,-46
OrientationDeg,1635830353870,3539621702145,282,-6,-46
OrientationDeg,1635830353886,3539637702145,282,-6,-46
OrientationDeg,1635830353902,3539653702145,282,-6,-46
OrientationDeg,1635830353919,3539669702145,282,-6,-46
OrientationDeg,1635830353934,3539685702145,282,-6,-46
OrientationDeg,1635830353950,3539701702145,282,-6,-46
OrientationDeg,1635830353967,3539717702145,282,-6,-46
Status,1635830354000,33,0,1,8,1575420032,12.10,298.00,12.00,1,1,1,12.1
Status,1635830354000,33,1,1,10,1575420032,21.10,4.00,43.00,0,1,1,21.1
Status,1635830354000,33,2,1,18,1575420032,11.60,135.00,45.00,0,1,1,11.6
Status,1635830354000,33,3,1,23,1575420032,22.70,52.00,36.00,1,1,1,22.7
Status,1635830354000,33,4,1,27,1575420032,19.30,270.00,28.00,1,1,1,19.3
Status,1635830354000,33,5,1,31,1575420032,13.30,189.00,23.00,0,1,1,13.3
Status,1635830354000,33,6,1,32,1575420032,16.20,296.00,61.00,1,1,1,16.2
Status,1635830354000,33,7,1,24,1575420032,0.00,45.00,16.00,0,1,1,0.0
Status,1635830354000,33,8,1,25,1575420032,0.00,125.00,4.00,0,1,1,0.0
Status,1635830354000,33,9,3,5,1602562560,17.50,313.00,34.00,0,1,0,17.5
Status,1635830354000,33,10,3,4,1605374976,16.20,14.00,27.00,0,1,0,16.2
Status,1635830354000,33,11,3,14,1598062464,0.00,82.00,21.00,0,1,0,0.0
Status,1635830354000,33,12,3,6,1599750016,0.00,261.00,2.00,0,1,0,0.0
Status,1635830354000,33,13,3,18,1600312448,0.00,171.00,25.00,0,1,0,0.0
Status,1635830354000,33,14,3,15,1602000000,0.00,136.00,19.00,0,1,0,0.0
Status,1635830354000,33,15,3,20,1603124992,0.00,323.00,35.00,0,1,0,0.0
Status,1635830354000,33,16,3,19,1603687552,0.00,210.00,66.00,0,1,0,0.0
Status,1635830354000,33,17,5,16,1561097984,23.00,28.00,54.00,0,1,0,23.0
Status,1635830354000,33,18,5,13,1561097984,16.00,91.00,61.00,0,1,0,16.0
Status,1635830354000,33,19,5,12,1561097984,17.90,215.00,54.00,0,1,0,17.9
Status,1635830354000,33,20,5,11,1561097984,20.90,296.00,39.00,1,1,0,20.9
Status,1635830354000,33,21,5,9,1561097984,19.00,19.00,77.00,1,1,0,19.0
Status,1635830354000,33,22,5,6,1561097984,19.30,26.00,63.00,0,1,0,19.3
Status,1635830354000,33,23,5,1,1561097984,0.00,97.00,13.00,0,1,0,0.0
Status,1635830354000,33,24,5,2,1561097984,0.00,160.00,68.00,0,1,0,0.0
Status,1635830354000,33,25,5,3,1561097984,0.00,115.00,47.00,0,1,0,0.0
Status,1635830354000,33,26,5,5,1561097984,0.00,229.00,59.00,0,1,0,0.0
Status,1635830354000,33,27,5,7,1561097984,0.00,149.00,7.00,0,1,0,0.0
Status,1635830354000,33,28,5,8,1561097984,0.00,104.00,50.00,0,1,0,0.0
Status,1635830354000,33,29,5,10,1561097984,0.00,161.00,10.00,0,1,0,0.0
Status,1635830354000,33,30,5,14,1561097984,0.00,281.00,14.00,0,1,0,0.0
Status,1635830354000,33,31,5,21,1561097984,0.00,7.00,42.00,0,1,0,0.0
Status,1635830354000,33,32,5,22,1561097984,0.00,57.00,14.00,0,1,0,0.0
OrientationDeg,1635830353982,3539733702145,282,-6,-46
OrientationDeg,1635830353999,3539749702145,282,-6,-46
OrientationDeg,1635830354014,3539765702145,282,-6,-46
Fix,GPS,18.6581342,78.1161846,249.678101,0.000000,26.212093,0.000000,1635830355000,3.1876323,0.0,3539739195471
Raw,1635830354434,3557699000000,18,,-1319862014735559806,0.9942111968994141,329.4008201919496,11.561948147833148,64.414151627235,2,18,0.0,16399,191972362748344,181,11.6,445.0017395019531,10.529500961303711,16,0.0,0.0,1.57542003E9,,,,0,,1,-0.18,8.1,0.0,0.0,,,,
Raw,1635830354434,3557699000000,18,,-1319862014735559806,0.9942111968994141,329.4008201919496,11.561948147833148,64.414151627235,2,23,0.0,16399,191972360598760,53,22.7,99.56165313720703,1.0835000276565552,16,0.0,0.0,1.57542003E9,,,,0,,1,-0.18,19.2,0.0,0.0,,,,
Raw,1635830354434,3557699000000,18,,-1319862014735559806,0.9942111968994141,329.4008201919496,11.561948147833148,64.414151627235,2,27,0.0,16399,191972357288202,92,19.3,129.46630859375,2.7820000648498535,16,0.0,0.0,1.57542003E9,,,,0,,1,-0.18,15.8,0.0,0.0,,,,
Raw,1635830354434,3557699000000,18,,-1319862014735559806,0.9942111968994141,329.4008201919496,11.561948147833148,64.414151627235,2,13,0.0,16399,191958313879398,1702,16.0,-62.75851058959961,9.956000328063965,16,0.0,0.0,1.56109798E9,,,,0,,5,0.12,11.7,-2597.60693359375,30.36346435546875,,,,
Raw,1635830354434,3557699000000,18,,-1319862014735559806,0.9942111968994141,329.4008201919496,11.561948147833148,64.414151627235,2,9,0.0,16399,191958313355361,1170,19.0,68.81735229492188,9.616000175476074,16,0.0,0.0,1.56109798E9,,,,0,,5,0.12,14.7,-2597.60693359375,30.36346435546875,,,,
OrientationDeg,1635830354030,3539781702145,282,-6,-46
OrientationDeg,1635830354046,3539797702145,282,-6,-46
OrientationDeg,1635830354062,3539813702145,282,-6,-46
OrientationDeg,1635830354078,3539829702145,282,-6,-46
OrientationDeg,1635830354095,3539845702145,282,-6,-46
OrientationDeg,1635830354111,3539861702145,282,-6,-46
OrientationDeg,1635830354127,3539877702145,283,-6,-46
OrientationDeg,1635830354143,3539893702145,283,-6,-46
OrientationDeg,1635830354158,3539909702145,283,-6,-46
OrientationDeg,1635830354175,3539925702145,283,-6,-46
OrientationDeg,1635830354190,3539941702145,283,-6,-46
OrientationDeg,1635830354206,3539957702145,283,-6,-46
OrientationDeg,1635830354223,3539973702145,283,-6,-46
OrientationDeg,1635830354238,3539989702145,283,-6,-46
OrientationDeg,1635830354254,3540005702145,283,-6,-46
OrientationDeg,1635830354270,3540021702145,283,-6,-46
OrientationDeg,1635830354286,3540037702145,283,-6,-46
OrientationDeg,1635830354302,3540053702145,283,-6,-46
OrientationDeg,1635830354318,3540069702145,283,-6,-46
OrientationDeg,1635830354335,3540085702145,283,-6,-46
OrientationDeg,1635830354350,3540101702145,283,-6,-46
OrientationDeg,1635830354367,3540117702145,283,-6,-46
OrientationDeg,1635830354382,3540133702145,283,-6,-46
OrientationDeg,1635830354398,3540149702145,283,-6,-46
OrientationDeg,1635830354415,3540165702145,283,-6,-46
OrientationDeg,1635830354430,3540181702145,283,-6,-46
OrientationDeg,1635830354447,3540197702145,283,-6,-46
OrientationDeg,1635830354462,3540213702145,283,-6,-46
OrientationDeg,1635830354479,3540229702145,283,-6,-46
OrientationDeg,1635830354494,3540245702145,283,-6,-46
OrientationDeg,1635830354511,3540261702145,283,-6,-46
OrientationDeg,1635830354527,3540277702145,283,-6,-46
OrientationDeg,1635830354542,3540293702145,283,-6,-46
OrientationDeg,1635830354558,3540309702145,283,-6,-46
OrientationDeg,1635830354574,3540325702145,283,-6,-46
OrientationDeg,1635830354591,3540341702145,283,-6,-46
OrientationDeg,1635830354607,3540357702145,283,-6,-46
OrientationDeg,1635830354622,3540373702145,283,-6,-46
OrientationDeg,1635830354638,3540389702145,283,-6,-46
OrientationDeg,1635830354655,3540405702145,283,-6,-46
OrientationDeg,1635830354670,3540421702145,283,-6,-46
OrientationDeg,1635830354686,3540437702145,283,-6,-46
OrientationDeg,1635830354703,3540453702145,283,-6,-46
OrientationDeg,1635830354718,3540469702145,283,-6,-46
OrientationDeg,1635830354734,3540485702145,283,-6,-46
OrientationDeg,1635830354750,3540501702145,283,-6,-46
OrientationDeg,1635830354766,3540517702145,283,-6,-46
OrientationDeg,1635830354783,3540533702145,283,-6,-46
OrientationDeg,1635830354798,3540549702145,283,-6,-46
OrientationDeg,1635830354814,3540565702145,283,-6,-46
OrientationDeg,1635830354830,3540581702145,283,-6,-46
OrientationDeg,1635830354846,3540597702145,283,-6,-46
OrientationDeg,1635830354863,3540613702145,283,-6,-46
OrientationDeg,1635830354878,3540629702145,283,-6,-46
OrientationDeg,1635830354895,3540645702145,283,-6,-46
OrientationDeg,1635830354910,3540661702145,283,-6,-46
OrientationDeg,1635830354926,3540677702145,283,-6,-46
OrientationDeg,1635830354942,3540693702145,283,-6,-46
OrientationDeg,1635830354958,3540709702145,283,-6,-46
OrientationDeg,1635830354974,3540725702145,283,-6,-46
Status,1635830355000,33,0,1,8,1575420032,12.10,298.00,12.00,1,1,1,12.1
Status,1635830355000,33,1,1,10,1575420032,14.40,4.00,43.00,0,1,1,14.4
Status,1635830355000,33,2,1,18,1575420032,11.60,135.00,45.00,1,1,1,11.6
Status,1635830355000,33,3,1,23,1575420032,22.70,52.00,36.00,1,1,1,22.7
Status,1635830355000,33,4,1,27,1575420032,19.30,270.00,28.00,1,1,1,19.3
Status,1635830355000,33,5,1,31,1575420032,13.30,189.00,23.00,0,1,1,13.3
Status,1635830355000,33,6,1,32,1575420032,20.40,296.00,61.00,1,1,1,20.4
Status,1635830355000,33,7,1,24,1575420032,0.00,45.00,16.00,0,1,1,0.0
Status,1635830355000,33,8,1,25,1575420032,0.00,125.00,4.00,0,1,1,0.0
Status,1635830355000,33,9,3,5,1602562560,17.50,313.00,34.00,0,1,0,17.5
Status,1635830355000,33,10,3,4,1605374976,16.20,14.00,27.00,0,1,0,16.2
Status,1635830355000,33,11,3,14,1598062464,0.00,82.00,21.00,0,1,0,0.0
Status,1635830355000,33,12,3,6,1599750016,0.00,261.00,2.00,0,1,0,0.0
Status,1635830355000,33,13,3,18,1600312448,0.00,171.00,25.00,0,1,0,0.0
Status,1635830355000,33,14,3,15,1602000000,0.00,136.00,19.00,0,1,0,0.0
Status,1635830355000,33,15,3,20,1603124992,0.00,323.00,35.00,0,1,0,0.0
Status,1635830355000,33,16,3,19,1603687552,0.00,210.00,66.00,0,1,0,0.0
Status,1635830355000,33,17,5,16,1561097984,23.00,28.00,54.00,0,1,0,23.0
Status,1635830355000,33,18,5,13,1561097984,16.00,91.00,61.00,0,1,0,16.0
Status,1635830355000,33,19,5,12,1561097984,17.90,215.00,54.00,0,1,0,17.9
Status,1635830355000,33,20,5,11,1561097984,20.90,296.00,39.00,1,1,0,20.9
Status,1635830355000,33,21,5,9,1561097984,19.00,19.00,77.00,1,1,0,19.0
Status,1635830355000,33,22,5,6,1561097984,19.30,26.00,63.00,0,1,0,19.3
Status,1635830355000,33,23,5,1,1561097984,0.00,97.00,13.00,0,1,0,0.0
Status,1635830355000,33,24,5,2,1561097984,0.00,160.00,68.00,0,1,0,0.0
Status,1635830355000,33,25,5,3,1561097984,0.00,115.00,47.00,0,1,0,0.0
Status,1635830355000,33,26,5,5,1561097984,0.00,229.00,59.00,0,1,0,0.0
Status,1635830355000,33,27,5,7,1561097984,0.00,149.00,7.00,0,1,0,0.0
Status,1635830355000,33,28,5,8,1561097984,0.00,104.00,50.00,0,1,0,0.0
Status,1635830355000,33,29,5,10,1561097984,0.00,161.00,10.00,0,1,0,0.0
Status,1635830355000,33,30,5,14,1561097984,0.00,281.00,14.00,0,1,0,0.0
Status,1635830355000,33,31,5,21,1561097984,0.00,7.00,42.00,0,1,0,0.0
Status,1635830355000,33,32,5,22,1561097984,0.00,57.00,14.00,0,1,0,0.0
OrientationDeg,1635830354990,3540741702145,283,-6,-46
OrientationDeg,1635830355006,3540757702145,283,-6,-46
Fix,GPS,18.6581332,78.1161762,249.697021,0.000000,28.098995,0.000000,1635830356000,3.1593828,0.0,3540744949325
Raw,1635830355434,3558699000000,18,,-1319862014735559786,0.7233486175537109,258.16986453719437,10.507013237087376,42.95940074200055,2,10,0.0,16399,191973361644443,181,14.4,-124.05244445800781,10.118000030517578,16,0.0,0.0,1.57542003E9,,,,0,,1,-0.23,10.9,0.0,0.0,,,,
Raw,1635830355434,3558699000000,18,,-1319862014735559786,0.7233486175537109,258.16986453719437,10.507013237087376,42.95940074200055,2,23,0.0,16399,191973360598280,53,22.7,99.09542846679688,0.9965000152587891,16,0.0,0.0,1.57542003E9,,,,0,,1,-0.23,19.2,0.0,0.0,,,,
Raw,1635830355434,3558699000000,18,,-1319862014735559786,0.7233486175537109,258.16986453719437,10.507013237087376,42.95940074200055,2,32,0.0,16399,191973364788124,80,20.4,33.139644622802734,1.9225000143051147,16,0.0,0.0,1.57542003E9,,,,0,,1,-0.23,16.9,0.0,0.0,,,,
Raw,1635830355434,3558699000000,18,,-1319862014735559786,0.7233486175537109,258.16986453719437,10.507013237087376,42.95940074200055,2,13,0.0,16399,191959313879614,159,16.0,-62.71049880981445,11.081000328063965,16,0.0,0.0,1.56109798E9,,,,0,,5,0.06,11.7,-2597.60693359375,30.36346435546875,,,,
Raw,1635830355434,3558699000000,18,,-1319862014735559786,0.7233486175537109,258.16986453719437,10.507013237087376,42.95940074200055,2,9,0.0,16399,191959313355129,106,19.0,68.84616088867188,10.741000175476074,16,0.0,0.0,1.56109798E9,,,,0,,5,0.06,14.7,-2597.60693359375,30.36346435546875,,,,
OrientationDeg,1635830355022,3540773702145,283,-6,-46
OrientationDeg,1635830355038,3540789702145,283,-6,-46
OrientationDeg,1635830355054,3540805702145,283,-6,-46
OrientationDeg,1635830355071,3540821702145,283,-6,-46
OrientationDeg,1635830355087,3540837702145,283,-6,-46
OrientationDeg,1635830355103,3540853702145,283,-6,-46
OrientationDeg,1635830355118,3540869702145,283,-6,-46
OrientationDeg,1635830355134,3540885702145,283,-6,-46
OrientationDeg,1635830355150,3540901702145,283,-6,-46
OrientationDeg,1635830355167,3540917702145,283,-6,-46
OrientationDeg,1635830355182,3540933702145,283,-6,-46
OrientationDeg,1635830355198,3540949702145,283,-6,-46
OrientationDeg,1635830355214,3540965702145,283,-6,-46
OrientationDeg,1635830355230,3540981702145,283,-6,-46
OrientationDeg,1635830355246,3540997702145,283,-6,-46
OrientationDeg,1635830355262,3541013702145,283,-6,-46
OrientationDeg,1635830355278,3541029702145,283,-6,-46
OrientationDeg,1635830355295,3541045702145,283,-6,-46
OrientationDeg,1635830355311,3541061702145,283,-6,-46
OrientationDeg,1635830355327,3541077702145,283,-6,-46
OrientationDeg,1635830355342,3541093702145,283,-6,-46
OrientationDeg,1635830355358,3541109702145,283,-6,-46
OrientationDeg,1635830355375,3541125702145,283,-6,-46
OrientationDeg,1635830355391,3541141702145,283,-6,-46
OrientationDeg,1635830355406,3541157702145,283,-6,-46
OrientationDeg,1635830355422,3541173702145,283,-6,-46
OrientationDeg,1635830355438,3541189702145,283,-6,-46
OrientationDeg,1635830355454,3541205702145,283,-6,-46
OrientationDeg,1635830355470,3541221702145,283,-6,-46
OrientationDeg,1635830355486,3541237702145,283,-6,-46
OrientationDeg,1635830355503,3541253702145,283,-6,-46
OrientationDeg,1635830355518,3541269702145,283,-6,-46
OrientationDeg,1635830355534,3541285702145,283,-6,-46
OrientationDeg,1635830355550,3541301702145,283,-6,-46
OrientationDeg,1635830355566,3541317702145,283,-6,-46
OrientationDeg,1635830355582,3541333702145,283,-6,-46
OrientationDeg,1635830355598,3541349702145,283,-6,-46
OrientationDeg,1635830355615,3541365702145,283,-6,-46
OrientationDeg,1635830355631,3541381702145,283,-6,-46
OrientationDeg,1635830355646,3541397702145,283,-6,-46
OrientationDeg,1635830355662,3541413702145,283,-6,-46
OrientationDeg,1635830355678,3541429702145,283,-6,-46
OrientationDeg,1635830355694,3541445702145,283,-6,-46
OrientationDeg,1635830355710,3541461702145,283,-6,-46
OrientationDeg,1635830355726,3541477702145,283,-6,-46
OrientationDeg,1635830355742,3541493702145,283,-6,-46
OrientationDeg,1635830355758,3541509702145,283,-6,-46
OrientationDeg,1635830355774,3541525702145,283,-6,-46
OrientationDeg,1635830355790,3541541702145,283,-6,-46
